[{"title":"Łódzka Galeria Sztuki","address":"Piotrkowska 145, 90-057 Łódź, Polska","coordinate":{"latitude":51.760852,"longitude":19.4579729},"openingHours":[{"days":"pon-pt","hours":"10:00-18:00"},{"days":"sob","hours":"11:00-15:00"}]},{"title":"Miejska Galeria Sztuki w Łodzi","address":"Henryka Sienkiewicza 44, 90-009 Łódź, Polska","coordinate":{"latitude":51.7640812,"longitude":19.4640123},"openingHours":[{"days":"pn-czw","hours":"12:00-18:00"},{"days":"pt-ndz","hours":"14:00-18:00"}]},{"title":"Galeria ASP (Piotrkowska 68)","address":"Piotrkowska 68, 90-105 Łódź, Polska","coordinate":{"latitude":51.7691479,"longitude":19.4565552},"openingHours":[{"days":"pn","hours":"10:00-16:00"},{"days":"śr-pt","hours":"13:00-19:00"}]},{"title":"Galeria Piotra Uznańskiego","address":"Piotrkowska 31, 90-410 Łódź, Polska","coordinate":{"latitude":51.7722714,"longitude":19.4555615},"openingHours":[{"days":"pn-czw","hours":"12:00-18:00"},{"days":"pt-ndz","hours":"14:00-18:00"}]},{"title":"Adi art. Galeria","address":"Piotrkowska 60, 90-106 Łódź, Polska","coordinate":{"latitude":51.7697665,"longitude":19.456442},"openingHours":[{"days":"pon-pt","hours":"10:00-18:00"},{"days":"sob","hours":"11:00-15:00"}]},{"title":"Galeria Willa","address":"Wólczańska 33, 90-001 Łódź, Polska","coordinate":{"latitude":51.7689681,"longitude":19.4516349},"openingHours":[{"days":"wt","hours":"9:00-17:00"},{"days":"czw-nd","hours":"12:00-20:00"}]},{"title":"Galerie Miejskie","address":"Piotrkowska 113, 90-430 Łódź, Polska","coordinate":{"latitude":51.7637598,"longitude":19.4570253},"openingHours":[{"days":"pon-pt","hours":"10:00-18:00"},{"days":"sob","hours":"11:00-15:00"}]},{"title":"Bałucka. Galeria","address":"Stary Rynek 2, 91-438 Łódź, Polska","coordinate":{"latitude":51.7819171,"longitude":19.455059},"openingHours":[{"days":"pn-śr","hours":"9:00-17:00"},{"days":"czw-nd","hours":"11:00-19:00"}]},{"title":"Wschodnia. Galeria","address":"Wschodnia 29, 90-272 Łódź, Polska","coordinate":{"latitude":51.7758908,"longitude":19.4573049},"openingHours":[{"days":"wt","hours":"9:00-17:00"},{"days":"czw-nd","hours":"12:00-20:00"}]},{"title":"Galeria Opus","address":"Łąkowa 29, 90-554 Łódź, Polska","coordinate":{"latitude":51.7579192,"longitude":19.4429746},"openingHours":[{"days":"pn-nd","hours":"8:00-16:00"},{"days":"wt-czw","hours":"10:00-19:00"}]},{"title":"Rynek Sztuki - Galeria i Dom Aukcyjny","address":"Wschodnia 69, 90-266 Łódź, Polska","coordinate":{"latitude":51.7709296,"longitude":19.4586281},"openingHours":[{"days":"pn-śr","hours":"9:00-17:00"},{"days":"czw-nd","hours":"11:00-19:00"}]},{"title":"Galeria Sztuki Dawnej Muzeum Pałac Herbsta","address":"Przędzalniana 72, 90-338 Łódź, Polska","coordinate":{"latitude":51.75427939999999,"longitude":19.4848212},"openingHours":[{"days":"pn-nd","hours":"10:00-20:00"}]},{"title":"Art Hub Rydzowa","address":"Rydzowa 10, 91-312 Łódź, Polska","coordinate":{"latitude":51.7979381,"longitude":19.3763447},"openingHours":[{"days":"pn-śr","hours":"9:00-17:00"},{"days":"czw-nd","hours":"11:00-19:00"}]},{"title":"Centrum Architektury i Wzornictwa","address":"Targowa 65, 90-324 Łódź, Polska","coordinate":{"latitude":51.7564979,"longitude":19.4734149},"openingHours":[{"days":"pn-czw","hours":"12:00-18:00"},{"days":"pt-ndz","hours":"14:00-18:00"}]},{"title":"Ośrodek Propagandy Sztuki","address":"aleja Jerzego „Romualda Młockiego” Szletyńskiego, 90-001 Łódź, Polska","coordinate":{"latitude":51.764102,"longitude":19.4641255},"openingHours":[{"days":"pn-śr","hours":"9:00-17:00"},{"days":"czw-nd","hours":"11:00-19:00"}]},{"title":"Sensor Sztuki","address":"Łódzki Dom Kultury p. 430, Gen. Romualda Traugutta 18, 90-106 Łódź, Polska","coordinate":{"latitude":51.76928729999999,"longitude":19.4619156},"openingHours":[{"days":"pon-pt","hours":"10:00-18:00"},{"days":"sob","hours":"11:00-15:00"}]},{"title":"Olimpus. Galeria","address":"90-416,, al. Tadeusza Kościuszki, 97-420, Polska","coordinate":{"latitude":51.77219359999999,"longitude":19.4555515},"openingHours":[{"days":"pn-śr","hours":"9:00-15:00"},{"days":"pt-ndz","hours":"12:00-18:00"}]},{"title":"Portiernia Sztuki","address":"Inżynierska 9, 90-135 Łódź, Polska","coordinate":{"latitude":51.7505118,"longitude":19.442118},"openingHours":[{"days":"pon-śr","hours":"8:30-16:30"},{"days":"czw-pt","hours":"10:00-18:00"}]},{"title":"Galeria AOKZ","address":"Włókiennicza 3, 90-260 Łódź, Polska","coordinate":{"latitude":51.7738976,"longitude":19.4594455},"openingHours":[{"days":"pn-nd","hours":"10:00-20:00"}]},{"title":"Galeria PERSONALART","address":"Ogrodowa 4, 91-062 Łódź, Polska","coordinate":{"latitude":51.778731,"longitude":19.4540411},"openingHours":[{"days":"sb-nd","hours":"12:00-16:00"}]}]