[{"title":"Galeria M | Sztuka współczesna | Wrocław | Dzieła sztuki online","address":"Świdnicka 38A, 50-068 Wrocław, Polska","coordinate":{"latitude":51.1047131,"longitude":17.0312817},"openingHours":[{"days":"pn","hours":"10:00-16:00"},{"days":"śr-pt","hours":"13:00-19:00"}]},{"title":"Galeria Sztuki Współczesnej MD_S","address":"Bolesława Chrobrego 24, 50-254 Wrocław, Polska","coordinate":{"latitude":51.12245189999999,"longitude":17.0346172},"openingHours":[{"days":"sb-nd","hours":"12:00-16:00"}]},{"title":"Na Jatkach. Galeria tkacka. Poradowska-Werszler E.","address":"Jatki 19, 50-111 Wrocław, Polska","coordinate":{"latitude":51.1121416,"longitude":17.0308745},"openingHours":[{"days":"pn-śr","hours":"9:00-17:00"},{"days":"czw-nd","hours":"11:00-19:00"}]},{"title":"Galeria Sztuki Platon","address":"Krupnicza 13, 50-075 Wrocław, Polska","coordinate":{"latitude":51.1079389,"longitude":17.026187},"openingHours":[{"days":"wt","hours":"9:00-17:00"},{"days":"czw-nd","hours":"12:00-20:00"}]},{"title":"Galeria Sztuki Współczesnej Faligowskich- Robert Faligowski","address":"Rynek Ratusz 25, 50-101 Wrocław, Polska","coordinate":{"latitude":51.1101132,"longitude":17.0329406},"openingHours":[{"days":"pn-czw","hours":"12:00-18:00"},{"days":"pt-ndz","hours":"14:00-18:00"}]},{"title":"mia ART GALLERY","address":"Plac Solny 11, 50-061 Wrocław, Polska","coordinate":{"latitude":51.1091909,"longitude":17.028516},"openingHours":[{"days":"pn-czw","hours":"12:00-18:00"},{"days":"pt-ndz","hours":"14:00-18:00"}]},{"title":"Galeria - Polska","address":"Odrzańska 8/1, 50-113 Wrocław, Polska","coordinate":{"latitude":51.1122259,"longitude":17.0316614},"openingHours":[{"days":"pon-pt","hours":"10:00-18:00"},{"days":"sob","hours":"11:00-15:00"}]},{"title":"Galeria Versus","address":"Jatki 11, 50-111 Wrocław, Polska","coordinate":{"latitude":51.112208,"longitude":17.0304927},"openingHours":[{"days":"pn-nd","hours":"10:00-20:00"}]},{"title":"Galeria Kowalscy, Galeria Sztuki Współczesnej i Fotografii Autorskiej","address":"Jatki 15, 50-111 Wrocław, Polska","coordinate":{"latitude":51.11217610000001,"longitude":17.0306984},"openingHours":[{"days":"pn-nd","hours":"8:00-16:00"},{"days":"wt-czw","hours":"10:00-19:00"}]},{"title":"Galeria Arttrakt","address":"Ofiar Oświęcimskich 1/1, 50-069 Wrocław, Polska","coordinate":{"latitude":51.1087269,"longitude":17.0300978},"openingHours":[{"days":"pon-śr","hours":"8:30-16:30"},{"days":"czw-pt","hours":"10:00-18:00"}]},{"title":"Tętno Art Gallery","address":"Jatki 12 -13, 50-111 Wrocław, Polska","coordinate":{"latitude":51.1121072,"longitude":17.0306591},"openingHours":[{"days":"pn-śr","hours":"9:00-15:00"},{"days":"pt-ndz","hours":"12:00-18:00"}]},{"title":"Test. Galeria sztuki współczesnej. Bończa-Pióro K., artysta plastyk","address":"Oławska 10, 50-123 Wrocław, Polska","coordinate":{"latitude":51.1087096,"longitude":17.0351915},"openingHours":[{"days":"pn-śr","hours":"9:00-17:00"},{"days":"czw-nd","hours":"11:00-19:00"}]},{"title":"Vivid Gallery | Galeria Sztuki","address":"pl. Tadeusza Kościuszki 4, 50-029 Wrocław, Polska","coordinate":{"latitude":51.103713,"longitude":17.029303},"openingHours":[{"days":"pn","hours":"10:00-16:00"},{"days":"śr-pt","hours":"13:00-19:00"}]},{"title":"Magazyn Sztuk","address":"Piaskowa, 50-158 Wrocław, Polska","coordinate":{"latitude":51.1121036,"longitude":17.0391939},"openingHours":[{"days":"sb-nd","hours":"12:00-16:00"}]},{"title":"Artes Domus. Galeria. Hubka M.","address":"Jatki 7, 50-111 Wrocław, Polska","coordinate":{"latitude":51.112222,"longitude":17.0303966},"openingHours":[{"days":"wt","hours":"9:00-17:00"},{"days":"czw-nd","hours":"12:00-20:00"}]},{"title":"Galeria Sztuki Naiwnej","address":"Kiełbaśnicza 31, 50-135 Wrocław, Polska","coordinate":{"latitude":51.110363,"longitude":17.0290937},"openingHours":[{"days":"pn-czw","hours":"12:00-18:00"},{"days":"pt-ndz","hours":"14:00-18:00"}]},{"title":"Galeria sztuki Dworcowa","address":"Marszałka Józefa Piłsudskiego 105, 50-085 Wrocław, Polska","coordinate":{"latitude":51.0989015,"longitude":17.0360103},"openingHours":[{"days":"pn","hours":"10:00-16:00"},{"days":"śr-pt","hours":"13:00-19:00"}]},{"title":"Galeria Miejska","address":"Kiełbaśnicza 28, 50-109 Wrocław, Polska","coordinate":{"latitude":51.1108305,"longitude":17.0292442},"openingHours":[{"days":"pn-śr","hours":"9:00-17:00"},{"days":"czw-nd","hours":"11:00-19:00"}]},{"title":"Galeria Magiel","address":"Wapienna 19, 50-520 Wrocław, Polska","coordinate":{"latitude":51.0893697,"longitude":17.041813},"openingHours":[{"days":"pn-nd","hours":"8:00-16:00"},{"days":"wt-czw","hours":"10:00-19:00"}]},{"title":"Galeria Sztuki DNA","address":"plac Dominikański 3, 50-159 Wrocław, Polska","coordinate":{"latitude":51.10834879999999,"longitude":17.0404281},"openingHours":[{"days":"wt","hours":"9:00-17:00"},{"days":"czw-nd","hours":"12:00-20:00"}]},{"title":"Galeria Sztuki Ludowej i Nieprofesjonalnej KPCK","address":"pl. Kościeleckich 6, 85-033 Bydgoszcz, Polska","coordinate":{"latitude":53.1203711,"longitude":18.0041256},"openingHours":[{"days":"pn-śr","hours":"9:00-15:00"},{"days":"pt-ndz","hours":"12:00-18:00"}]},{"title":"Bydgoskie Centrum Sztuki","address":"Jagiellońska 47, 85-029 Bydgoszcz, Polska","coordinate":{"latitude":53.1234055,"longitude":18.0187161},"openingHours":[{"days":"pn-śr","hours":"9:00-17:00"},{"days":"czw-nd","hours":"11:00-19:00"}]},{"title":"Galeria Sztuki Wozownia","address":"Rabiańska 20, 87-100 Toruń, Polska","coordinate":{"latitude":53.008783,"longitude":18.6037831},"openingHours":[{"days":"pn-śr","hours":"9:00-17:00"},{"days":"czw-nd","hours":"11:00-19:00"}]},{"title":"Jagiellońska 1 - Dom Aukcyjny i Galeria Sztuki","address":"Jagiellońska 1, 85-067 Bydgoszcz, Polska","coordinate":{"latitude":53.12404309999999,"longitude":18.003531},"openingHours":[{"days":"pon-pt","hours":"10:00-18:00"},{"days":"sob","hours":"11:00-15:00"}]},{"title":"Galeria Sztuki Współczesnej","address":"Miedziana 2/4, 87-800 Włocławek, Polska","coordinate":{"latitude":52.6545584,"longitude":19.070675},"openingHours":[{"days":"pn-śr","hours":"9:00-17:00"},{"days":"czw-nd","hours":"11:00-19:00"}]},{"title":"Galeria Sztuki Nowoczesnej - Muzeum Okręgowe im. Leona Wyczółkowskiego w Bydgoszczy","address":"Mennica 8, 85-112 Bydgoszcz, Polska","coordinate":{"latitude":53.1223553,"longitude":17.9972955},"openingHours":[{"days":"pn-śr","hours":"9:00-17:00"},{"days":"czw-nd","hours":"11:00-19:00"}]},{"title":"Znaki Czasu. Centrum Sztuki Współczesnej","address":"Wały Generała Władysława Sikorskiego 13, 87-100 Toruń, Polska","coordinate":{"latitude":53.0119781,"longitude":18.6007576},"openingHours":[{"days":"pon-śr","hours":"8:30-16:30"},{"days":"czw-pt","hours":"10:00-18:00"}]},{"title":"MAYA Galeria Sztuki i Atelier -Maja Wolf","address":"Ducha Świętego 19, 87-100 Toruń, Polska","coordinate":{"latitude":53.009609,"longitude":18.6030319},"openingHours":[{"days":"pn-nd","hours":"8:00-16:00"},{"days":"wt-czw","hours":"10:00-19:00"}]},{"title":"Sepia. Autorska galeria sztuki. Łożykowski S.","address":"Lipowa 21, 88-100 Inowrocław, Polska","coordinate":{"latitude":52.79025439999999,"longitude":18.275048},"openingHours":[{"days":"pn-śr","hours":"9:00-15:00"},{"days":"pt-ndz","hours":"12:00-18:00"}]},{"title":"Galeria Sztuki NEXT","address":"Poznańska 31, 85-129 Bydgoszcz, Polska","coordinate":{"latitude":53.1220272,"longitude":17.9900735},"openingHours":[{"days":"pon-śr","hours":"8:30-16:30"},{"days":"czw-pt","hours":"10:00-18:00"}]},{"title":"Centre Of Contemporary Art In Toruń","address":"Wały Generała Władysława Sikorskiego 13, 87-100 Toruń, Polska","coordinate":{"latitude":53.0120722,"longitude":18.600583},"openingHours":[{"days":"pon-pt","hours":"10:00-18:00"},{"days":"sob","hours":"11:00-15:00"}]},{"title":"Galeria Miejska bwa w Bydgoszczy","address":"Gdańska 20, 85-006 Bydgoszcz, Polska","coordinate":{"latitude":53.12629769999999,"longitude":18.0050871},"openingHours":[{"days":"pn-śr","hours":"9:00-15:00"},{"days":"pt-ndz","hours":"12:00-18:00"}]},{"title":"Natalove Sztuki","address":"Henryka Sienkiewicza 31, 85-037 Bydgoszcz, Polska","coordinate":{"latitude":53.13194559999999,"longitude":18.0019342},"openingHours":[{"days":"sb-nd","hours":"12:00-16:00"}]},{"title":"Art Gallery Jan Zwolicki","address":"Bzowo 104, 86-160 Bzowo, Polska","coordinate":{"latitude":53.55572489999999,"longitude":18.6669339},"openingHours":[{"days":"pn-nd","hours":"10:00-20:00"}]},{"title":"Mała Galeria Fotografiki, Okręg Kujawsko-Pomorski ZPAF","address":"Różana 1, 87-100 Toruń, Polska","coordinate":{"latitude":53.0098362,"longitude":18.6028896},"openingHours":[{"days":"sb-nd","hours":"12:00-16:00"}]},{"title":"Galeria Rusz","address":"Jurija Gagarina 152a, 87-100 Toruń, Polska","coordinate":{"latitude":53.0172476,"longitude":18.571921},"openingHours":[{"days":"pn-nd","hours":"10:00-20:00"}]},{"title":"Galeria Miejska bwa","address":"Gdańska 3, 85-005 Bydgoszcz, Polska","coordinate":{"latitude":53.1247335,"longitude":18.002711},"openingHours":[{"days":"sb-nd","hours":"12:00-16:00"}]},{"title":"KlosArt. Galeria portretu","address":"Orla 3, 85-114 Bydgoszcz, Polska","coordinate":{"latitude":53.1173443,"longitude":17.9900116},"openingHours":[{"days":"pn-czw","hours":"12:00-18:00"},{"days":"pt-ndz","hours":"14:00-18:00"}]},{"title":"Galeria RYPIN","address":"3 Maja 10, 87-500 Rypin, Polska","coordinate":{"latitude":53.0691332,"longitude":19.416557},"openingHours":[{"days":"pn","hours":"10:00-16:00"},{"days":"śr-pt","hours":"13:00-19:00"}]},{"title":"Zdzisław Preisner","address":"Zygmunta Krasińskiego, Toruń, Polska","coordinate":{"latitude":53.0110894,"longitude":18.5781351},"openingHours":[{"days":"pn-nd","hours":"8:00-16:00"},{"days":"wt-czw","hours":"10:00-19:00"}]},{"title":"Wirydarz - Galeria Sztuki Współczesnej Piotra Zielińskiego","address":"Grodzka 19, 20-112 Lublin, Polska","coordinate":{"latitude":51.249488,"longitude":22.5697393},"openingHours":[{"days":"pn","hours":"10:00-16:00"},{"days":"śr-pt","hours":"13:00-19:00"}]},{"title":"Galeria Sztuki Piwnice Lublina","address":"Prezydenta Gabriela Narutowicza 19, 20-004 Lublin, Polska","coordinate":{"latitude":51.24609359999999,"longitude":22.5607482},"openingHours":[{"days":"pn-śr","hours":"9:00-17:00"},{"days":"czw-nd","hours":"11:00-19:00"}]},{"title":"Galeria Sztuki Witryna","address":"Fryderyka Chopina 1, 20-026 Lublin, Polska","coordinate":{"latitude":51.2473143,"longitude":22.5543637},"openingHours":[{"days":"pon-śr","hours":"8:30-16:30"},{"days":"czw-pt","hours":"10:00-18:00"}]},{"title":"Galeria Biała","address":"Peowiaków 12, 20-007 Lublin, Polska","coordinate":{"latitude":51.2463218,"longitude":22.5578397},"openingHours":[{"days":"pn-śr","hours":"9:00-15:00"},{"days":"pt-ndz","hours":"12:00-18:00"}]},{"title":"WEDUTA - Galeria Sztuki Kinga Jankowska","address":"Ul, Bolesława Chrobrego 4/15, 20-611 Lublin, Polska","coordinate":{"latitude":51.24061,"longitude":22.53871},"openingHours":[{"days":"pn-śr","hours":"9:00-17:00"},{"days":"czw-nd","hours":"11:00-19:00"}]},{"title":"Galeria \"Gardzienice\"","address":"Grodzka 5A, 20-400 Lublin, Polska","coordinate":{"latitude":51.2485005,"longitude":22.568575},"openingHours":[{"days":"wt","hours":"9:00-17:00"},{"days":"czw-nd","hours":"12:00-20:00"}]},{"title":"Galeria Saska","address":"Aleje Racławickie 14A, 20-037 Lublin, Polska","coordinate":{"latitude":51.2483782,"longitude":22.5459931},"openingHours":[{"days":"pn-śr","hours":"9:00-15:00"},{"days":"pt-ndz","hours":"12:00-18:00"}]},{"title":"Galeria Sztuki, Antyków, Rzemiosła Artystycznego Bogusław Wydra","address":"Zielona 10, 20-082 Lublin, Polska","coordinate":{"latitude":51.2480245,"longitude":22.5637754},"openingHours":[{"days":"pn-śr","hours":"9:00-15:00"},{"days":"pt-ndz","hours":"12:00-18:00"}]},{"title":"Galeria Sztuki Sceny Plastycznej KUL","address":"Rynek 8, 20-111 Lublin, Polska","coordinate":{"latitude":51.2480406,"longitude":22.5684285},"openingHours":[{"days":"sb-nd","hours":"12:00-16:00"}]},{"title":"Art Brut Lublin","address":"Peowiaków 12, 20-007 Lublin, Polska","coordinate":{"latitude":51.24654169999999,"longitude":22.558086},"openingHours":[{"days":"wt","hours":"9:00-17:00"},{"days":"czw-nd","hours":"12:00-20:00"}]},{"title":"Biblioteka Azyl (Galeria Labirynt | Plaza)","address":"Lipowa 13, 20-001 Lublin, Polska","coordinate":{"latitude":51.24482039999999,"longitude":22.5492702},"openingHours":[{"days":"pn-śr","hours":"9:00-17:00"},{"days":"czw-nd","hours":"11:00-19:00"}]},{"title":"Galeria Labirynt","address":"Księdza Jerzego Popiełuszki 5, 20-052 Lublin, Polska","coordinate":{"latitude":51.2525335,"longitude":22.5409179},"openingHours":[{"days":"sb-nd","hours":"12:00-16:00"}]},{"title":"Galeria Nowa","address":"Lubartowska 9, 20-400 Lublin, Polska","coordinate":{"latitude":51.2481734,"longitude":22.5661734},"openingHours":[{"days":"pn-śr","hours":"9:00-15:00"},{"days":"pt-ndz","hours":"12:00-18:00"}]},{"title":"Canaletto Art Gallery","address":"Aleja Spółdzielczości Pracy 34, 20-400 Lublin, Polska","coordinate":{"latitude":51.2659429,"longitude":22.5709282},"openingHours":[{"days":"pn-śr","hours":"9:00-15:00"},{"days":"pt-ndz","hours":"12:00-18:00"}]},{"title":"Galeria Atu Lublin","address":"Złota 3, 20-112 Lublin, Polska","coordinate":{"latitude":51.2478043,"longitude":22.5690967},"openingHours":[{"days":"pn-nd","hours":"8:00-16:00"},{"days":"wt-czw","hours":"10:00-19:00"}]},{"title":"Galeria Głęboka","address":"Głęboka 10/5, 20-612 Lublin, Polska","coordinate":{"latitude":51.2399442,"longitude":22.5488171},"openingHours":[{"days":"pon-śr","hours":"8:30-16:30"},{"days":"czw-pt","hours":"10:00-18:00"}]},{"title":"Galeria Nasz Świat","address":"Kowalska 1, 20-115 Lublin, Polska","coordinate":{"latitude":51.2498977,"longitude":22.5669918},"openingHours":[{"days":"pn","hours":"10:00-16:00"},{"days":"śr-pt","hours":"13:00-19:00"}]},{"title":"GALERIA AMW","address":"Biernata z Lublina 34, 20-465 Lublin, Polska","coordinate":{"latitude":51.2166367,"longitude":22.572968},"openingHours":[{"days":"pn-śr","hours":"9:00-15:00"},{"days":"pt-ndz","hours":"12:00-18:00"}]},{"title":"Galeria- Krzysztof Banach","address":"Kowalska 14, 20-115 Lublin, Polska","coordinate":{"latitude":51.24998189999999,"longitude":22.5693678},"openingHours":[{"days":"pn-śr","hours":"9:00-15:00"},{"days":"pt-ndz","hours":"12:00-18:00"}]},{"title":"Brain Damage Gallery","address":"ul. Marii Curie-Skłodowskiej 7, 20-029 Lublin, Polska","coordinate":{"latitude":51.2461896,"longitude":22.5472683},"openingHours":[{"days":"pn-śr","hours":"9:00-17:00"},{"days":"czw-nd","hours":"11:00-19:00"}]},{"title":"Galeria Nowy Wiek","address":"al. Niepodległości 15, 65-001 Zielona Góra, Polska","coordinate":{"latitude":51.9415598,"longitude":15.5084518},"openingHours":[{"days":"pn-nd","hours":"8:00-16:00"},{"days":"wt-czw","hours":"10:00-19:00"}]},{"title":"Miejski Ośrodek Sztuki","address":"Miejski Ośrodek Sztuki, Pomorska 73, 66-400 Gorzów Wielkopolski, Polska","coordinate":{"latitude":52.7413153,"longitude":15.255838},"openingHours":[{"days":"pn-nd","hours":"8:00-16:00"},{"days":"wt-czw","hours":"10:00-19:00"}]},{"title":"Galeria Pro Arte","address":"Stary Rynek 3, 65-067 Zielona Góra, Polska","coordinate":{"latitude":51.9380886,"longitude":15.5056851},"openingHours":[{"days":"pon-śr","hours":"8:30-16:30"},{"days":"czw-pt","hours":"10:00-18:00"}]},{"title":"Galeria Azyl Art","address":"Bolesława Chrobrego 13, 66-400 Gorzów Wielkopolski, Polska","coordinate":{"latitude":52.7368251,"longitude":15.2338616},"openingHours":[{"days":"pn-śr","hours":"9:00-15:00"},{"days":"pt-ndz","hours":"12:00-18:00"}]},{"title":"Galeria BWA","address":"al. Niepodległości 19, 65-048 Zielona Góra, Polska","coordinate":{"latitude":51.9418681,"longitude":15.5094053},"openingHours":[{"days":"pn-czw","hours":"12:00-18:00"},{"days":"pt-ndz","hours":"14:00-18:00"}]},{"title":"Objects Gallery","address":"Borowskiego 2a/3/1, 66-400 Gorzów Wielkopolski, Polska","coordinate":{"latitude":52.7370321,"longitude":15.2364697},"openingHours":[{"days":"pn-nd","hours":"8:00-16:00"},{"days":"wt-czw","hours":"10:00-19:00"}]},{"title":"Galeria malarstwa Jerzy Zgorzałek","address":"Okólna 31A, 66-400 Gorzów Wielkopolski, Polska","coordinate":{"latitude":52.7394845,"longitude":15.2521195},"openingHours":[{"days":"pn-śr","hours":"9:00-17:00"},{"days":"czw-nd","hours":"11:00-19:00"}]},{"title":"Galeria pod Tekstem","address":"Bankowa 3, 67-100 Nowa Sól, Polska","coordinate":{"latitude":51.7997004,"longitude":15.7138998},"openingHours":[{"days":"pn-śr","hours":"9:00-17:00"},{"days":"czw-nd","hours":"11:00-19:00"}]},{"title":"Galeria Kwadart","address":"Krzywoustego 2, 66-400 Gorzów Wielkopolski, Polska","coordinate":{"latitude":52.7362687,"longitude":15.2355211},"openingHours":[{"days":"pn-śr","hours":"9:00-17:00"},{"days":"czw-nd","hours":"11:00-19:00"}]},{"title":"Galeria Baszta","address":"Klonowa 76, 64-360, Polska","coordinate":{"latitude":52.276041,"longitude":15.8809688},"openingHours":[{"days":"pn-śr","hours":"9:00-15:00"},{"days":"pt-ndz","hours":"12:00-18:00"}]},{"title":"Galeria Sztuki w Starej Fabryce Zielona Góra","address":"Fabryczna 13A, 65-410 Zielona Góra, Polska","coordinate":{"latitude":51.9342131,"longitude":15.5026732},"openingHours":[{"days":"pn-śr","hours":"9:00-15:00"},{"days":"pt-ndz","hours":"12:00-18:00"}]},{"title":"MAŁA GALERIA","address":"Bolesława Chrobrego 4, 66-400 Gorzów Wielkopolski, Polska","coordinate":{"latitude":52.733504,"longitude":15.2364785},"openingHours":[{"days":"pon-pt","hours":"10:00-18:00"},{"days":"sob","hours":"11:00-15:00"}]},{"title":"ArtPhotoGALLERY","address":"Kościelna 7, 67-100 Nowa Sól, Polska","coordinate":{"latitude":51.80373119999999,"longitude":15.7210146},"openingHours":[{"days":"wt","hours":"9:00-17:00"},{"days":"czw-nd","hours":"12:00-20:00"}]},{"title":"Streb. Galeria. Malarstwo, grafika, ramiarstwo","address":"Sukiennicza 5, 66-200 Świebodzin, Polska","coordinate":{"latitude":52.251599,"longitude":15.530979},"openingHours":[{"days":"pon-pt","hours":"10:00-18:00"},{"days":"sob","hours":"11:00-15:00"}]},{"title":"Malarstwo artystyczne Stanisław Bogusławski","address":"Szkolna 2/J, 66-432 Baczyna, Polska","coordinate":{"latitude":52.7562456,"longitude":15.1154026},"openingHours":[{"days":"pn-nd","hours":"8:00-16:00"},{"days":"wt-czw","hours":"10:00-19:00"}]},{"title":"Salon wystaw artystycznych Żarskiego Domu Kultury","address":"Rynek 17, 68-200 Żary, Polska","coordinate":{"latitude":51.6385307,"longitude":15.143433},"openingHours":[{"days":"pon-pt","hours":"10:00-18:00"},{"days":"sob","hours":"11:00-15:00"}]},{"title":"Galeria pod pracownią","address":"Okólna 31A, 66-400 Gorzów Wielkopolski, Polska","coordinate":{"latitude":52.7395715,"longitude":15.2521082},"openingHours":[{"days":"pon-pt","hours":"10:00-18:00"},{"days":"sob","hours":"11:00-15:00"}]},{"title":"Mała Galeria Gorzowskiego Towarzystwa Fotograficznego","address":"Bolesława Chrobrego 4, 66-400 Gorzów Wielkopolski, Polska","coordinate":{"latitude":52.733497,"longitude":15.236527},"openingHours":[{"days":"pon-śr","hours":"8:30-16:30"},{"days":"czw-pt","hours":"10:00-18:00"}]},{"title":"Okno. Galeria","address":"1 Maja 1, 69-100 Słubice, Polska","coordinate":{"latitude":52.3477778,"longitude":14.5608333},"openingHours":[{"days":"sb-nd","hours":"12:00-16:00"}]},{"title":"Galeria Szmatek. Sosnowski G.","address":"Kościuszki 10, 66-530 Drezdenko, Polska","coordinate":{"latitude":52.8405352,"longitude":15.8311273},"openingHours":[{"days":"pn-śr","hours":"9:00-17:00"},{"days":"czw-nd","hours":"11:00-19:00"}]},{"title":"Galeria Sztuki Współczesnej Bunkier Sztuki","address":"Rynek Główny 20, 31-008 Kraków, Polska","coordinate":{"latitude":50.06082439999999,"longitude":19.9366343},"openingHours":[{"days":"wt","hours":"9:00-17:00"},{"days":"czw-nd","hours":"12:00-20:00"}]},{"title":"Galeria Sztuki Starożytnej Muzeum Czartoryskich","address":"Pijarska 8, 31-015 Kraków, Polska","coordinate":{"latitude":50.06510489999999,"longitude":19.9403619},"openingHours":[{"days":"pn-nd","hours":"10:00-20:00"}]},{"title":"Galeria 2 Światy","address":"Brzozowa 14, 31-050 Kraków, Polska","coordinate":{"latitude":50.053987,"longitude":19.9459692},"openingHours":[{"days":"pn-śr","hours":"9:00-15:00"},{"days":"pt-ndz","hours":"12:00-18:00"}]},{"title":"Galeria Sztuki Współczesnej Strefa A","address":"Stolarska 6, 31-043 Kraków, Polska","coordinate":{"latitude":50.0604495,"longitude":19.9393912},"openingHours":[{"days":"pn-śr","hours":"9:00-17:00"},{"days":"czw-nd","hours":"11:00-19:00"}]},{"title":"Galeria Sztuki BWA JATKI","address":"Tadeusza Kościuszki 4, 34-400 Nowy Targ, Polska","coordinate":{"latitude":49.4833043,"longitude":20.031874},"openingHours":[{"days":"pn","hours":"10:00-16:00"},{"days":"śr-pt","hours":"13:00-19:00"}]},{"title":"Galeria Sztuki Na Styku","address":"Broniewskiego 4, 32-500 Chrzanów, Polska","coordinate":{"latitude":50.143453,"longitude":19.4077269},"openingHours":[{"days":"pn-śr","hours":"9:00-17:00"},{"days":"czw-nd","hours":"11:00-19:00"}]},{"title":"Kamienny Kwiatek · galeria sztuki","address":"Gwoździec 35, 32-065 Nawojowa Góra, Polska","coordinate":{"latitude":50.126268,"longitude":19.6537474},"openingHours":[{"days":"sb-nd","hours":"12:00-16:00"}]},{"title":"Galeria ASP w Krakowie","address":"Basztowa 18, 31-157 Kraków, Polska","coordinate":{"latitude":50.0660817,"longitude":19.9411079},"openingHours":[{"days":"pon-śr","hours":"8:30-16:30"},{"days":"czw-pt","hours":"10:00-18:00"}]},{"title":"Zofia Weiss Gallery - Galeria Sztuki Współczesnej","address":"Podwale 6, 31-118 Kraków, Polska","coordinate":{"latitude":50.06303690000001,"longitude":19.9320789},"openingHours":[{"days":"pn-śr","hours":"9:00-15:00"},{"days":"pt-ndz","hours":"12:00-18:00"}]},{"title":"Nowosądecka Mała Galeria","address":"Jagiellońska 35, 33-300 Nowy Sącz, Polska","coordinate":{"latitude":49.61945799999999,"longitude":20.6945231},"openingHours":[{"days":"pn-śr","hours":"9:00-15:00"},{"days":"pt-ndz","hours":"12:00-18:00"}]},{"title":"Starmach. Galeria","address":"Węgierska 5, 30-535 Kraków, Polska","coordinate":{"latitude":50.0441146,"longitude":19.9511389},"openingHours":[{"days":"pon-śr","hours":"8:30-16:30"},{"days":"czw-pt","hours":"10:00-18:00"}]},{"title":"Galeria Sztuki ATTIS","address":"Starowiślna 14, 31-032 Kraków, Polska","coordinate":{"latitude":50.0577859,"longitude":19.9442085},"openingHours":[{"days":"pn-śr","hours":"9:00-17:00"},{"days":"czw-nd","hours":"11:00-19:00"}]},{"title":"Krakowski Magazyn Sztuki. Galeria ram i obrazów. www.ArtBay.pl","address":"Kamienna 8, 31-403 Kraków, Polska","coordinate":{"latitude":50.0767507,"longitude":19.9414583},"openingHours":[{"days":"pn-nd","hours":"10:00-20:00"}]},{"title":"Galeria Huta Sztuki | Ośrodek Kultury Norwida","address":"osiedle Górali 5, 31-959 Kraków, Polska","coordinate":{"latitude":50.07986649999999,"longitude":20.0358731},"openingHours":[{"days":"pon-pt","hours":"10:00-18:00"},{"days":"sob","hours":"11:00-15:00"}]},{"title":"Galeria OFF FRAME","address":"Krakowska 41, 33-332 Kraków, Polska","coordinate":{"latitude":50.04770569999999,"longitude":19.9434312},"openingHours":[{"days":"sb-nd","hours":"12:00-16:00"}]},{"title":"Galeria Sztuki „Batko”","address":"Podhalańska 14, 32-040 Ochojno, Polska","coordinate":{"latitude":49.9511425,"longitude":19.9729694},"openingHours":[{"days":"pn-nd","hours":"10:00-20:00"}]},{"title":"Galeria Arteria","address":"Na Szaniec 10, 31-560 Kraków, Polska","coordinate":{"latitude":50.057869,"longitude":19.9784571},"openingHours":[{"days":"pn-nd","hours":"8:00-16:00"},{"days":"wt-czw","hours":"10:00-19:00"}]},{"title":"Galeria Sztuki Współczesnej BWA SOKÓŁ","address":"Jana Długosza 3, 33-300 Nowy Sącz, Polska","coordinate":{"latitude":49.6223226,"longitude":20.6948202},"openingHours":[{"days":"pon-pt","hours":"10:00-18:00"},{"days":"sob","hours":"11:00-15:00"}]},{"title":"Galeria AG. Galeria","address":"Józefa 18, 31-056 Kraków, Polska","coordinate":{"latitude":50.05071909999999,"longitude":19.94469},"openingHours":[{"days":"wt","hours":"9:00-17:00"},{"days":"czw-nd","hours":"12:00-20:00"}]},{"title":"Attyka Galeria Sztuki","address":"Świętej Gertrudy 23, 31-048 Kraków, Polska","coordinate":{"latitude":50.0544105,"longitude":19.9398738},"openingHours":[{"days":"pn","hours":"10:00-16:00"},{"days":"śr-pt","hours":"13:00-19:00"}]},{"title":"Galeria Sztuki Współczesnej","address":"plac Teatralny 12, 45-056 Opole, Polska","coordinate":{"latitude":50.6689225,"longitude":17.932368},"openingHours":[{"days":"pn-nd","hours":"8:00-16:00"},{"days":"wt-czw","hours":"10:00-19:00"}]},{"title":"Pracownia Sztuki i Galeria Malarstwa Rynek Sztuki w Opolu","address":"Ozimska 15A, 45-057 Opole, Polska","coordinate":{"latitude":50.6676945,"longitude":17.9267525},"openingHours":[{"days":"wt","hours":"9:00-17:00"},{"days":"czw-nd","hours":"12:00-20:00"}]},{"title":"Galeria Sztuki Epicentrum w Opolu","address":"plac Kopernika 6, 46-020 Opole, Polska","coordinate":{"latitude":50.66888119999999,"longitude":17.9271199},"openingHours":[{"days":"pn-śr","hours":"9:00-15:00"},{"days":"pt-ndz","hours":"12:00-18:00"}]},{"title":"Galeria WuBePe","address":"Piastowska 20, 45-081 Opole, Polska","coordinate":{"latitude":50.6644722,"longitude":17.9221563},"openingHours":[{"days":"pn-czw","hours":"12:00-18:00"},{"days":"pt-ndz","hours":"14:00-18:00"}]},{"title":"Galeria ZPAP","address":"Krakowska 1, 45-018 Opole, Polska","coordinate":{"latitude":50.6682845,"longitude":17.9233453},"openingHours":[{"days":"pn-czw","hours":"12:00-18:00"},{"days":"pt-ndz","hours":"14:00-18:00"}]},{"title":"Bonk Art Gallery","address":"Rynek 10, 45-015 Opole, Polska","coordinate":{"latitude":50.6687181,"longitude":17.9214156},"openingHours":[{"days":"pon-śr","hours":"8:30-16:30"},{"days":"czw-pt","hours":"10:00-18:00"}]},{"title":"Galeria Rozmaitości","address":"Żeromskiego 6, 46-020 Opole, Polska","coordinate":{"latitude":50.6699344,"longitude":17.9274349},"openingHours":[{"days":"pn-czw","hours":"12:00-18:00"},{"days":"pt-ndz","hours":"14:00-18:00"}]},{"title":"Galeria Artystyczna Kamińscy","address":"plac Kopernika 2/2, 45-040 Opole, Polska","coordinate":{"latitude":50.6694306,"longitude":17.9275962},"openingHours":[{"days":"pn-śr","hours":"9:00-17:00"},{"days":"czw-nd","hours":"11:00-19:00"}]},{"title":"Galeria Muzeum Śląska Opolskiego","address":"Ozimska 10, 45-057 Opole, Polska","coordinate":{"latitude":50.6672632,"longitude":17.9261525},"openingHours":[{"days":"pn","hours":"10:00-16:00"},{"days":"śr-pt","hours":"13:00-19:00"}]},{"title":"Galeria Malarstwa Forbis","address":"Marka Prawego 18a, 47-100 Strzelce Opolskie, Polska","coordinate":{"latitude":50.51035950000001,"longitude":18.3065944},"openingHours":[{"days":"sb-nd","hours":"12:00-16:00"}]},{"title":"Galeria Interior Design","address":"Księdza Norberta Bonczyka 6, 45-705 Opole, Polska","coordinate":{"latitude":50.6707525,"longitude":17.9154223},"openingHours":[{"days":"pn","hours":"10:00-16:00"},{"days":"śr-pt","hours":"13:00-19:00"}]},{"title":"Aneta Barglik Gallery","address":"Bronisława Koraszewskiego 23, 45-011 Opole, Polska","coordinate":{"latitude":50.6696684,"longitude":17.9204964},"openingHours":[{"days":"sb-nd","hours":"12:00-16:00"}]},{"title":"Galeria Kwarantanna","address":"Podlesie, Polska","coordinate":{"latitude":50.27681339999999,"longitude":17.3449813},"openingHours":[{"days":"pn-nd","hours":"10:00-20:00"}]},{"title":"FestaProArte","address":"Dambonia 103, 45-860 Opole, Polska","coordinate":{"latitude":50.6630173,"longitude":17.8880222},"openingHours":[{"days":"pn-nd","hours":"8:00-16:00"},{"days":"wt-czw","hours":"10:00-19:00"}]},{"title":"Marek Mikulski","address":"Stanisława Spychalskiego 1/6, 45-716 Opole, Polska","coordinate":{"latitude":50.668643,"longitude":17.9143819},"openingHours":[{"days":"pon-śr","hours":"8:30-16:30"},{"days":"czw-pt","hours":"10:00-18:00"}]},{"title":"Galeria Biały Kruk","address":"Bronisława Koraszewskiego 1, 45-007 Opole, Polska","coordinate":{"latitude":50.6687902,"longitude":17.9212771},"openingHours":[{"days":"pn-śr","hours":"9:00-15:00"},{"days":"pt-ndz","hours":"12:00-18:00"}]},{"title":"Galeria Sztuki Hanny Bakuły „No Ba!”","address":"Rynek 2, 48-200 Prudnik, Polska","coordinate":{"latitude":50.321441,"longitude":17.5806656},"openingHours":[{"days":"pon-pt","hours":"10:00-18:00"},{"days":"sob","hours":"11:00-15:00"}]},{"title":"Ramiarnia Galeria K-ART DESIGN","address":"Książąt Opolskich 13/1a, 45-005 Opole, Polska","coordinate":{"latitude":50.669856,"longitude":17.9214089},"openingHours":[{"days":"pon-śr","hours":"8:30-16:30"},{"days":"czw-pt","hours":"10:00-18:00"}]},{"title":"Grafitti - jeż","address":"Unnamed Road, 49-340, Polska","coordinate":{"latitude":50.7478553,"longitude":17.6363293},"openingHours":[{"days":"pn-nd","hours":"8:00-16:00"},{"days":"wt-czw","hours":"10:00-19:00"}]},{"title":"Galeria Studzienna","address":"Klasztorna 3, 46-020 Opole, Polska","coordinate":{"latitude":50.6679214,"longitude":17.9265017},"openingHours":[{"days":"sb-nd","hours":"12:00-16:00"}]},{"title":"Galeria Szopa","address":"Równia 10, 38-700, Polska","coordinate":{"latitude":49.4128207,"longitude":22.5753176},"openingHours":[{"days":"pn-śr","hours":"9:00-15:00"},{"days":"pt-ndz","hours":"12:00-18:00"}]},{"title":"Galeria Miejskiego Ośrodka Kultury","address":"Akademicka 30, 39-200 Dębica, Polska","coordinate":{"latitude":50.0610362,"longitude":21.408443},"openingHours":[{"days":"pn","hours":"10:00-16:00"},{"days":"śr-pt","hours":"13:00-19:00"}]},{"title":"Autorska Galeria Sztuki - Andrzej Kijowski","address":"Komańcza 269, 38-543 Komańcza, Polska","coordinate":{"latitude":49.3445871,"longitude":22.0334185},"openingHours":[{"days":"pon-śr","hours":"8:30-16:30"},{"days":"czw-pt","hours":"10:00-18:00"}]},{"title":"Galeria Miejska Zespołu Szkół Plastycznych im. Piotra Michałowskiego w Rzeszowie","address":"Generała Jarosława Dąbrowskiego 29, 35-036 Rzeszów, Polska","coordinate":{"latitude":50.028374,"longitude":21.9927733},"openingHours":[{"days":"wt","hours":"9:00-17:00"},{"days":"czw-nd","hours":"12:00-20:00"}]},{"title":"Galeria Autorska S.Salamon","address":"Trzebownisko 770, 36-001 Trzebownisko, Polska","coordinate":{"latitude":50.0793666,"longitude":22.0326964},"openingHours":[{"days":"pon-śr","hours":"8:30-16:30"},{"days":"czw-pt","hours":"10:00-18:00"}]},{"title":"Europejska Galeria Sztuki. Dom Aukcyjny Millenium","address":"Aleja Majora Wacława Kopisto 1, 35-315 Rzeszów, Polska","coordinate":{"latitude":50.0270747,"longitude":22.0138037},"openingHours":[{"days":"pn-nd","hours":"8:00-16:00"},{"days":"wt-czw","hours":"10:00-19:00"}]},{"title":"Rzeszowski Dom Sztuki - Adam Rajzer","address":"Adama Mickiewicza 13, 35-330 Rzeszów, Polska","coordinate":{"latitude":50.0376944,"longitude":22.0066751},"openingHours":[{"days":"sb-nd","hours":"12:00-16:00"}]},{"title":"Galeria Sztuki Ludowej Czumak","address":"ul, Jana III Sobieskiego 12/p. 108, 38-500 Sanok, Polska","coordinate":{"latitude":49.5618373,"longitude":22.2043304},"openingHours":[{"days":"pn","hours":"10:00-16:00"},{"days":"śr-pt","hours":"13:00-19:00"}]},{"title":"Galeria Sztuki Ludowej","address":"Rynek 23, 37-600 Lubaczów, Polska","coordinate":{"latitude":50.1569531,"longitude":23.1221167},"openingHours":[{"days":"pon-pt","hours":"10:00-18:00"},{"days":"sob","hours":"11:00-15:00"}]},{"title":"rancho rosa art","address":"3 Maja, 39-120 Sędziszów Małopolski, Polska","coordinate":{"latitude":50.07105199999999,"longitude":21.7018739},"openingHours":[{"days":"pn-śr","hours":"9:00-15:00"},{"days":"pt-ndz","hours":"12:00-18:00"}]},{"title":"Galeria Sztuki Współczesnej Pastula","address":"Kupno 492, 36-145 Kupno, Polska","coordinate":{"latitude":50.1844212,"longitude":21.8459005},"openingHours":[{"days":"pon-pt","hours":"10:00-18:00"},{"days":"sob","hours":"11:00-15:00"}]},{"title":"Galeria Sztuki Współczesnej","address":"Tadeusza Kościuszki 3, 37-700 Przemyśl, Polska","coordinate":{"latitude":49.7831579,"longitude":22.7678775},"openingHours":[{"days":"pn-śr","hours":"9:00-17:00"},{"days":"czw-nd","hours":"11:00-19:00"}]},{"title":"Galeria Sztuki BellArt","address":"Gołębia 4A, 35-205 Rzeszów, Polska","coordinate":{"latitude":50.0486689,"longitude":21.9975736},"openingHours":[{"days":"sb-nd","hours":"12:00-16:00"}]},{"title":"DagArt Galerie","address":"Aleja Majora Wacława Kopisto 1, 35-315 Rzeszów, Polska","coordinate":{"latitude":50.0270747,"longitude":22.0138037},"openingHours":[{"days":"pn-śr","hours":"9:00-17:00"},{"days":"czw-nd","hours":"11:00-19:00"}]},{"title":"Galeria Indygo Pracownia Artystyczna","address":"Kąty 28M, 37-100 Łańcut, Polska","coordinate":{"latitude":50.08834969999999,"longitude":22.2022284},"openingHours":[{"days":"pn","hours":"10:00-16:00"},{"days":"śr-pt","hours":"13:00-19:00"}]},{"title":"Galeria fantasmogoria","address":"Przysłup 27A, 38-607, Polska","coordinate":{"latitude":49.1844192,"longitude":22.3891577},"openingHours":[{"days":"pon-śr","hours":"8:30-16:30"},{"days":"czw-pt","hours":"10:00-18:00"}]},{"title":"NU. gallery","address":"Rynek 20, 38-400 Krosno, Polska","coordinate":{"latitude":49.6935164,"longitude":21.7642948},"openingHours":[{"days":"pon-śr","hours":"8:30-16:30"},{"days":"czw-pt","hours":"10:00-18:00"}]},{"title":"Galeria","address":"Bóbrka, Polska","coordinate":{"latitude":49.4135549,"longitude":22.4514733},"openingHours":[{"days":"pn-nd","hours":"10:00-20:00"}]},{"title":"Galeria Magnez","address":"Krakowska 30, 37-200 Przeworsk, Polska","coordinate":{"latitude":50.0597682,"longitude":22.4863196},"openingHours":[{"days":"wt","hours":"9:00-17:00"},{"days":"czw-nd","hours":"12:00-20:00"}]},{"title":"Galeria Zdzisława Beksińskiego","address":"Zamkowa 2, 38-500 Sanok, Polska","coordinate":{"latitude":49.5622663,"longitude":22.2093119},"openingHours":[{"days":"pn-nd","hours":"10:00-20:00"}]},{"title":"Galeria im. Sleńdzińskich","address":"Ludwika Waryńskiego 24a, 15-070 Białystok, Polska","coordinate":{"latitude":53.1368508,"longitude":23.1536024},"openingHours":[{"days":"pn-czw","hours":"12:00-18:00"},{"days":"pt-ndz","hours":"14:00-18:00"}]},{"title":"Galeria im. Sleńdzińskich - Legionowa 2","address":"Legionowa 2, 15-099 Białystok, Polska","coordinate":{"latitude":53.1325368,"longitude":23.1619764},"openingHours":[{"days":"pn-nd","hours":"8:00-16:00"},{"days":"wt-czw","hours":"10:00-19:00"}]},{"title":"Galeria Sztuki Marchand","address":"15-089 Białystok, Polska","coordinate":{"latitude":53.13240889999999,"longitude":23.1656104},"openingHours":[{"days":"pon-pt","hours":"10:00-18:00"},{"days":"sob","hours":"11:00-15:00"}]},{"title":"Galeria Sztuki Iwo Świątkowski","address":"Polowa, 18-400 Łomża, Polska","coordinate":{"latitude":53.1781873,"longitude":22.0738457},"openingHours":[{"days":"pn-czw","hours":"12:00-18:00"},{"days":"pt-ndz","hours":"14:00-18:00"}]},{"title":"Galeria im. Sleńdzińskich","address":"Wiktorii 5, 15-070 Białystok, Polska","coordinate":{"latitude":53.132955,"longitude":23.1778814},"openingHours":[{"days":"pn","hours":"10:00-16:00"},{"days":"śr-pt","hours":"13:00-19:00"}]},{"title":"Galeria Arsenał w Białymstoku","address":"Adama Mickiewicza 2, 15-222 Białystok, Polska","coordinate":{"latitude":53.1304264,"longitude":23.1664937},"openingHours":[{"days":"pn-śr","hours":"9:00-15:00"},{"days":"pt-ndz","hours":"12:00-18:00"}]},{"title":"Agart. Galeria sztuki, obrazy olejne, rzeźba, ceramik","address":"Jurowiecka 34, 15-101 Białystok, Polska","coordinate":{"latitude":53.13942480000001,"longitude":23.1604562},"openingHours":[{"days":"pn-śr","hours":"9:00-15:00"},{"days":"pt-ndz","hours":"12:00-18:00"}]},{"title":"Gallery Białystok","address":"Młynowa 38/lok. 17U, 15-404 Białystok, Polska","coordinate":{"latitude":53.128321,"longitude":23.148521},"openingHours":[{"days":"pn-śr","hours":"9:00-17:00"},{"days":"czw-nd","hours":"11:00-19:00"}]},{"title":"Fundacja Oficerów Rezerwy RP im Józef Piłsudskiego","address":"Skalna, 15-157 Białystok, Polska","coordinate":{"latitude":53.162011,"longitude":23.205396},"openingHours":[{"days":"pn","hours":"10:00-16:00"},{"days":"śr-pt","hours":"13:00-19:00"}]},{"title":"Galeria im. Tamary Sołoniewicz","address":"Mickiewicza 50, 17-220 Narewka, Polska","coordinate":{"latitude":52.83409710000001,"longitude":23.7610536},"openingHours":[{"days":"sb-nd","hours":"12:00-16:00"}]},{"title":"Nowy Świat Galeria Sztuki","address":"Plac Tadeusza Kościuszki 14/4, 16-030 Supraśl, Polska","coordinate":{"latitude":53.2060535,"longitude":23.3428192},"openingHours":[{"days":"pn-nd","hours":"8:00-16:00"},{"days":"wt-czw","hours":"10:00-19:00"}]},{"title":"NaumowiczART","address":"Oskara Sosnowskiego 7, 15-001 Białystok, Polska","coordinate":{"latitude":53.1295931,"longitude":23.1452026},"openingHours":[{"days":"pon-śr","hours":"8:30-16:30"},{"days":"czw-pt","hours":"10:00-18:00"}]},{"title":"Galeria Sztuki Współczesnej Chłodna 20","address":"Teofila Noniewicza 71, 16-400 Suwałki, Polska","coordinate":{"latitude":54.1013422,"longitude":22.9317881},"openingHours":[{"days":"pn","hours":"10:00-16:00"},{"days":"śr-pt","hours":"13:00-19:00"}]},{"title":"Dni Sztuki Współczesnej","address":"Legionowa 5, 15-281 Białystok, Polska","coordinate":{"latitude":53.129636,"longitude":23.1585369},"openingHours":[{"days":"pn","hours":"10:00-16:00"},{"days":"śr-pt","hours":"13:00-19:00"}]},{"title":"Białostockie Towarzystwo Przyjaciół Sztuk Pięknych","address":"Warszawska 27, 15-062 Białystok, Polska","coordinate":{"latitude":53.132573,"longitude":23.1711924},"openingHours":[{"days":"pon-pt","hours":"10:00-18:00"},{"days":"sob","hours":"11:00-15:00"}]},{"title":"ART IHAR PANICHAU","address":"Józefa Ignacego Kraszewskiego 31, 15-024 Białystok, Polska","coordinate":{"latitude":53.1384965,"longitude":23.1780682},"openingHours":[{"days":"pn-nd","hours":"10:00-20:00"}]},{"title":"GALERIA OBRAZÓW ANNA ART","address":"Starobojarska 12, 15-073 Białystok, Polska","coordinate":{"latitude":53.13532679999999,"longitude":23.1719885},"openingHours":[{"days":"sb-nd","hours":"12:00-16:00"}]},{"title":"Galeria KEY","address":"Antoniukowska 7/lok 4, 15-740 Białystok, Polska","coordinate":{"latitude":53.1401319,"longitude":23.1380899},"openingHours":[{"days":"pon-śr","hours":"8:30-16:30"},{"days":"czw-pt","hours":"10:00-18:00"}]},{"title":"Galeria Arsenał elektrownia","address":"Elektryczna 13, 15-080 Białystok, Polska","coordinate":{"latitude":53.1292039,"longitude":23.1716389},"openingHours":[{"days":"pon-pt","hours":"10:00-18:00"},{"days":"sob","hours":"11:00-15:00"}]},{"title":"Korycinska Mini Galerie Sztuki","address":"16-140 Korycin, Polska","coordinate":{"latitude":53.4447059,"longitude":23.090485},"openingHours":[{"days":"pon-śr","hours":"8:30-16:30"},{"days":"czw-pt","hours":"10:00-18:00"}]},{"title":"Galeria Sztuki Kana Art","address":"Wejście od ul. Gnilnej, zaułek świętego Bartłomieja 1, 80-855 Gdańsk, Polska","coordinate":{"latitude":54.3571918,"longitude":18.6502748},"openingHours":[{"days":"pn-śr","hours":"9:00-17:00"},{"days":"czw-nd","hours":"11:00-19:00"}]},{"title":"Biuro Gdańskiej Galerii Miejskiej","address":"Ogarna 27/28, 80-826 Gdańsk, Polska","coordinate":{"latitude":54.3479229,"longitude":18.6508546},"openingHours":[{"days":"pn","hours":"10:00-16:00"},{"days":"śr-pt","hours":"13:00-19:00"}]},{"title":"Bałtycka Galeria Sztuki Współczesnej","address":"Partyzantów 31A, 76-200 Słupsk, Polska","coordinate":{"latitude":54.4701008,"longitude":17.0343168},"openingHours":[{"days":"pn-nd","hours":"8:00-16:00"},{"days":"wt-czw","hours":"10:00-19:00"}]},{"title":"Centrum Sztuki Współczesnej Łaźnia 2","address":"Strajku Dokerów 5, 80-544 Gdańsk, Polska","coordinate":{"latitude":54.400053,"longitude":18.671602},"openingHours":[{"days":"sb-nd","hours":"12:00-16:00"}]},{"title":"Galeria Sztuki Nowy Warzywniak","address":"Opata Jacka Rybińskiego 25, 80-320 Gdańsk, Polska","coordinate":{"latitude":54.4088962,"longitude":18.5591121},"openingHours":[{"days":"pon-śr","hours":"8:30-16:30"},{"days":"czw-pt","hours":"10:00-18:00"}]},{"title":"Państwowa Galeria Sztuki","address":"Plac Zdrojowy 2, 81-720 Sopot, Polska","coordinate":{"latitude":54.4453973,"longitude":18.569428},"openingHours":[{"days":"sb-nd","hours":"12:00-16:00"}]},{"title":"Galeria Sztuki Da Vinci s.c","address":"Tkacka 19/20, 80-831 Gdańsk, Polska","coordinate":{"latitude":54.3498406,"longitude":18.6491089},"openingHours":[{"days":"pn-nd","hours":"10:00-20:00"}]},{"title":"Gdańska Galeria Miejska 1","address":"Piwna 27, 80-831 Gdańsk, Polska","coordinate":{"latitude":54.3496573,"longitude":18.6520173},"openingHours":[{"days":"pn-czw","hours":"12:00-18:00"},{"days":"pt-ndz","hours":"14:00-18:00"}]},{"title":"Galeria Sztuki MAG - Modern Art Gallery Garnizon | Aranżacje Wnętrz I Inwestycja w sztukę","address":"Leśmiana 11, 80-280 Gdańsk, Polska","coordinate":{"latitude":54.3828148,"longitude":18.5895241},"openingHours":[{"days":"pn","hours":"10:00-16:00"},{"days":"śr-pt","hours":"13:00-19:00"}]},{"title":"GALERIA SULMIN","address":"Macierzy Szkolnej 4, 83-331 Sulmin, Polska","coordinate":{"latitude":54.313323,"longitude":18.4683503},"openingHours":[{"days":"wt","hours":"9:00-17:00"},{"days":"czw-nd","hours":"12:00-20:00"}]},{"title":"Galeria PS","address":"Starowiejska 33, 81-363 Gdynia, Polska","coordinate":{"latitude":54.52102799999999,"longitude":18.5364009},"openingHours":[{"days":"pon-pt","hours":"10:00-18:00"},{"days":"sob","hours":"11:00-15:00"}]},{"title":"Cosma Gallery Sp. z o.o.","address":"Artura Grottgera 25/b, 80-311 Gdańsk, Polska","coordinate":{"latitude":54.4020034,"longitude":18.5636213},"openingHours":[{"days":"pn-śr","hours":"9:00-15:00"},{"days":"pt-ndz","hours":"12:00-18:00"}]},{"title":"Galeria Sztuk Różnych Kosycarz&amp;Beneda","address":"Ogarna 101, 80-823 Gdańsk, Polska","coordinate":{"latitude":54.3479044,"longitude":18.6516011},"openingHours":[{"days":"pn-śr","hours":"9:00-17:00"},{"days":"czw-nd","hours":"11:00-19:00"}]},{"title":"Galeria Sztuki Glaza Expo-Design","address":"Długi Targ 20/21, 80-828 Gdańsk, Polska","coordinate":{"latitude":54.3479069,"longitude":18.6548631},"openingHours":[{"days":"pon-pt","hours":"10:00-18:00"},{"days":"sob","hours":"11:00-15:00"}]},{"title":"Galeria SAS","address":"Szeroka 18/19, 80-835 Gdańsk, Polska","coordinate":{"latitude":54.35152429999999,"longitude":18.6516536},"openingHours":[{"days":"pn-nd","hours":"8:00-16:00"},{"days":"wt-czw","hours":"10:00-19:00"}]},{"title":"Gdańska Galeria Miejska 2","address":"Powroźnicza 13/15, 80-827 Gdańsk, Polska","coordinate":{"latitude":54.34721500000001,"longitude":18.6549517},"openingHours":[{"days":"pn-śr","hours":"9:00-17:00"},{"days":"czw-nd","hours":"11:00-19:00"}]},{"title":"Gdańska Galeria Güntera Grassa","address":"Szeroka 34/35, 36, 37, 80-825 Gdańsk, Polska","coordinate":{"latitude":54.35115219999999,"longitude":18.6536528},"openingHours":[{"days":"pn-nd","hours":"8:00-16:00"},{"days":"wt-czw","hours":"10:00-19:00"}]},{"title":"Galeria Malarstwa Monumentalnego","address":"Pilotów 11, 80-460 Gdańsk, Polska","coordinate":{"latitude":54.3924686,"longitude":18.5914091},"openingHours":[{"days":"sb-nd","hours":"12:00-16:00"}]},{"title":"Galeria Triada","address":"Piwna 11/12, 80-831 Gdańsk, Polska","coordinate":{"latitude":54.3501351,"longitude":18.6505675},"openingHours":[{"days":"pn-śr","hours":"9:00-17:00"},{"days":"czw-nd","hours":"11:00-19:00"}]},{"title":"Galeria Kaszubski Róg","address":"Gryfa Pomorskiego 2d, 83-324 Chmielno, Polska","coordinate":{"latitude":54.3203501,"longitude":18.0948542},"openingHours":[{"days":"pn-nd","hours":"8:00-16:00"},{"days":"wt-czw","hours":"10:00-19:00"}]},{"title":"Inny Śląsk. Galeria sztuki współczesnej","address":"Karola Miarki 2, 42-600 Tarnowskie Góry, Polska","coordinate":{"latitude":50.4432396,"longitude":18.8594978},"openingHours":[{"days":"pn-nd","hours":"8:00-16:00"},{"days":"wt-czw","hours":"10:00-19:00"}]},{"title":"galeria-malarstwa.pl","address":"Radzionkowska 36, 42-622 Świerklaniec, Polska","coordinate":{"latitude":50.4330626,"longitude":18.9246353},"openingHours":[{"days":"pn","hours":"10:00-16:00"},{"days":"śr-pt","hours":"13:00-19:00"}]},{"title":"Rondo Sztuki - Galeria ASP","address":"Rondo im. gen. Jerzego Ziętka 1, 40-001 Katowice, Polska","coordinate":{"latitude":50.26451640000001,"longitude":19.0234411},"openingHours":[{"days":"sb-nd","hours":"12:00-16:00"}]},{"title":"Śląska Galeria Sztuki","address":"Józefa Jainty 14, 41-902 Bytom, Polska","coordinate":{"latitude":50.34767249999999,"longitude":18.9215056},"openingHours":[{"days":"pn","hours":"10:00-16:00"},{"days":"śr-pt","hours":"13:00-19:00"}]},{"title":"Galeria Sztuki Współczesnej BWA","address":"al. Wojciecha Korfantego 6, 40-004 Katowice, Polska","coordinate":{"latitude":50.2622594,"longitude":19.0220727},"openingHours":[{"days":"pn-śr","hours":"9:00-15:00"},{"days":"pt-ndz","hours":"12:00-18:00"}]},{"title":"Galeria Sztuki FOX / Fox Art Gallery","address":"Powstańców 10, 40-040 Katowice, Polska","coordinate":{"latitude":50.2525217,"longitude":19.0172557},"openingHours":[{"days":"pn-czw","hours":"12:00-18:00"},{"days":"pt-ndz","hours":"14:00-18:00"}]},{"title":"Galeria Esta","address":"Raciborska 8, 44-100 Gliwice, Polska","coordinate":{"latitude":50.29451539999999,"longitude":18.6642221},"openingHours":[{"days":"pn-śr","hours":"9:00-15:00"},{"days":"pt-ndz","hours":"12:00-18:00"}]},{"title":"Galeria GX","address":"Księdza Konstantego Damrota 2, 41-100 Siemianowice Śląskie, Polska","coordinate":{"latitude":50.3050434,"longitude":19.0257079},"openingHours":[{"days":"wt","hours":"9:00-17:00"},{"days":"czw-nd","hours":"12:00-20:00"}]},{"title":"Jan. Śląska Galeria Malarstwa","address":"Prosta 2, 44-264 Jankowice, Polska","coordinate":{"latitude":50.0438097,"longitude":18.5692588},"openingHours":[{"days":"pon-pt","hours":"10:00-18:00"},{"days":"sob","hours":"11:00-15:00"}]},{"title":"Miejska Galeria Sztuki MM","address":"Henryka Sienkiewicza 3, 41-530 Chorzów, Polska","coordinate":{"latitude":50.2971493,"longitude":18.9502916},"openingHours":[{"days":"sb-nd","hours":"12:00-16:00"}]},{"title":"Galeria Sztuki NAGA","address":"Wspólna 22, 41-200 Sosnowiec, Polska","coordinate":{"latitude":50.2725637,"longitude":19.1279132},"openingHours":[{"days":"sb-nd","hours":"12:00-16:00"}]},{"title":"Galeria Sztuki Współczesnej Elektrownia","address":"Dehnelów 45, 41-250 Czeladź, Polska","coordinate":{"latitude":50.3082686,"longitude":19.0619499},"openingHours":[{"days":"pon-pt","hours":"10:00-18:00"},{"days":"sob","hours":"11:00-15:00"}]},{"title":"Kolekcja \"Barwy Śląska\"","address":"Młyńska 16, 41-700 Ruda Śląska, Polska","coordinate":{"latitude":50.244177,"longitude":18.8356848},"openingHours":[{"days":"pn-czw","hours":"12:00-18:00"},{"days":"pt-ndz","hours":"14:00-18:00"}]},{"title":"Galeria Sztuki Arena","address":"aleja Jana Nowaka-Jeziorańskiego 1, 44-100 Gliwice, Polska","coordinate":{"latitude":50.3071839,"longitude":18.6461876},"openingHours":[{"days":"pon-pt","hours":"10:00-18:00"},{"days":"sob","hours":"11:00-15:00"}]},{"title":"Miejska Galeria Sztuki Obok","address":"Pasaż kultury \"Andromeda\", plac Krzysztofa Kamila Baczyńskiego 2, 43-100 Tychy, Polska","coordinate":{"latitude":50.1265952,"longitude":18.9819721},"openingHours":[{"days":"sb-nd","hours":"12:00-16:00"}]},{"title":"Galeria Sztuki nieBanalnej","address":"Piastowska 12, 42-600 Tarnowskie Góry, Polska","coordinate":{"latitude":50.4436292,"longitude":18.8589239},"openingHours":[{"days":"pn-nd","hours":"8:00-16:00"},{"days":"wt-czw","hours":"10:00-19:00"}]},{"title":"Galeria Sztuki Miriam","address":"Batorego 23, 43-100 Tychy, Polska","coordinate":{"latitude":50.1258002,"longitude":18.9819068},"openingHours":[{"days":"pn-czw","hours":"12:00-18:00"},{"days":"pt-ndz","hours":"14:00-18:00"}]},{"title":"Galeria Domu Aukcyjnego Polonia Art.","address":"Jana Kochanowskiego 18, 40-035 Katowice, Polska","coordinate":{"latitude":50.2547151,"longitude":19.0193544},"openingHours":[{"days":"pn-czw","hours":"12:00-18:00"},{"days":"pt-ndz","hours":"14:00-18:00"}]},{"title":"Dagma Art","address":"Arkadiusza Puchały 4/1, 40-668 Katowice, Polska","coordinate":{"latitude":50.19948,"longitude":18.9799167},"openingHours":[{"days":"pn-nd","hours":"8:00-16:00"},{"days":"wt-czw","hours":"10:00-19:00"}]},{"title":"Galeria Sztuki \"Chimera\"","address":"Mariacka 3, 40-014 Katowice, Polska","coordinate":{"latitude":50.2574499,"longitude":19.0251005},"openingHours":[{"days":"pon-śr","hours":"8:30-16:30"},{"days":"czw-pt","hours":"10:00-18:00"}]},{"title":"Świętokrzyski Dom Aukcyjny &amp; Galeria Malarstwa Postmoderna","address":"Broniewskiego 42, 27-400 Ostrowiec Świętokrzyski, Polska","coordinate":{"latitude":50.9606925,"longitude":21.375761},"openingHours":[{"days":"pn-nd","hours":"10:00-20:00"}]},{"title":"Galeria Wieża Sztuki","address":"plac Niepodległości 1A, 25-014 Kielce, Polska","coordinate":{"latitude":50.8737237,"longitude":20.6182969},"openingHours":[{"days":"pn-nd","hours":"10:00-20:00"}]},{"title":"Galeria Współczesnej Sztuki Sakralnej \"Dom Praczki\"","address":"Zamkowa 5/7, 25-009 Kielce, Polska","coordinate":{"latitude":50.8683771,"longitude":20.6255084},"openingHours":[{"days":"pn-śr","hours":"9:00-15:00"},{"days":"pt-ndz","hours":"12:00-18:00"}]},{"title":"Galeria Sztuki Współczesnej Oranżeria","address":"Zamkowa 5, 25-009 Kielce, Polska","coordinate":{"latitude":50.868168,"longitude":20.625899},"openingHours":[{"days":"pn-nd","hours":"10:00-20:00"}]},{"title":"Galeria Winda","address":"plac Moniuszki 2b, 25-334 Kielce, Polska","coordinate":{"latitude":50.86903849999999,"longitude":20.6372218},"openingHours":[{"days":"wt","hours":"9:00-17:00"},{"days":"czw-nd","hours":"12:00-20:00"}]},{"title":"Galeria Związku Polskich Artystów Plastyków","address":"Henryka Sienkiewicza 29, 25-302 Kielce, Polska","coordinate":{"latitude":50.8712774,"longitude":20.6272414},"openingHours":[{"days":"pon-śr","hours":"8:30-16:30"},{"days":"czw-pt","hours":"10:00-18:00"}]},{"title":"Biłasówka. Galeria sztuki. Czarnecki T.","address":"Sportowa 2, 26-230 Radoszyce, Polska","coordinate":{"latitude":51.0714054,"longitude":20.2490769},"openingHours":[{"days":"pn-czw","hours":"12:00-18:00"},{"days":"pt-ndz","hours":"14:00-18:00"}]},{"title":"Artoja Galeria Artystyczna","address":"Bohaterów Warszawy 93, 28-100 Busko-Zdrój, Polska","coordinate":{"latitude":50.4700113,"longitude":20.6965774},"openingHours":[{"days":"pn-śr","hours":"9:00-15:00"},{"days":"pt-ndz","hours":"12:00-18:00"}]},{"title":"Galeria van Rij. Van Rij Gallery","address":"Sandomierska 243, 27-440 Ćmielów, Polska","coordinate":{"latitude":50.8864609,"longitude":21.5330083},"openingHours":[{"days":"pn","hours":"10:00-16:00"},{"days":"śr-pt","hours":"13:00-19:00"}]},{"title":"Galeria u Strasza","address":"Księdza Piotra Ściegiennego 2, 25-033 Kielce, Polska","coordinate":{"latitude":50.8632248,"longitude":20.6274061},"openingHours":[{"days":"pon-pt","hours":"10:00-18:00"},{"days":"sob","hours":"11:00-15:00"}]},{"title":"Galeria Sztuki Współczesnej Biura Wystaw Artystycznych","address":"Rynek 11, 27-600 Sandomierz, Polska","coordinate":{"latitude":50.679856,"longitude":21.7494377},"openingHours":[{"days":"wt","hours":"9:00-17:00"},{"days":"czw-nd","hours":"12:00-20:00"}]},{"title":"Sztuka na poziomie","address":"aleja Solidarności 23, 25-001 Kielce, Polska","coordinate":{"latitude":50.8791701,"longitude":20.6475809},"openingHours":[{"days":"pon-śr","hours":"8:30-16:30"},{"days":"czw-pt","hours":"10:00-18:00"}]},{"title":"Biuro Wystaw Artystycznych","address":"Siennieńska 54, 27-400 Ostrowiec Świętokrzyski, Polska","coordinate":{"latitude":50.9439916,"longitude":21.3910881},"openingHours":[{"days":"pn-nd","hours":"8:00-16:00"},{"days":"wt-czw","hours":"10:00-19:00"}]},{"title":"Galeria KREARTE. Pracownie Artystyczne i warsztaty","address":"Ciekoty 67, 26-001 Ciekoty, Polska","coordinate":{"latitude":50.9093412,"longitude":20.8083158},"openingHours":[{"days":"sb-nd","hours":"12:00-16:00"}]},{"title":"ZPAP Okręg Kielecki","address":"Henryka Sienkiewicza 29, 25-000 Kielce, Polska","coordinate":{"latitude":50.8710637,"longitude":20.6270522},"openingHours":[{"days":"pn","hours":"10:00-16:00"},{"days":"śr-pt","hours":"13:00-19:00"}]},{"title":"Instytut Dizajnu w Kielcach","address":"Zamkowa 3, 25-009 Kielce, Polska","coordinate":{"latitude":50.8682023,"longitude":20.6273185},"openingHours":[{"days":"pn-nd","hours":"10:00-20:00"}]},{"title":"Biuro Wystaw Artystycznych w Kielcach","address":"Kapitulna 2, 25-011 Kielce, Polska","coordinate":{"latitude":50.8704602,"longitude":20.6275767},"openingHours":[{"days":"pn-czw","hours":"12:00-18:00"},{"days":"pt-ndz","hours":"14:00-18:00"}]},{"title":"Marszand - Wojciech Stokowiec","address":"Zamojska 27, 25-135 Kielce, Polska","coordinate":{"latitude":50.8422056,"longitude":20.6173921},"openingHours":[{"days":"sb-nd","hours":"12:00-16:00"}]},{"title":"Tycjan Sklep Plastyczny Galeria Sztuki Kielce","address":"Henryka Sienkiewicza 42, 25-001 Kielce, Polska","coordinate":{"latitude":50.8717106,"longitude":20.6267666},"openingHours":[{"days":"pn-śr","hours":"9:00-17:00"},{"days":"czw-nd","hours":"11:00-19:00"}]},{"title":"Willa Polonia","address":"Aleja Adama Mickiewicza 7, 28-100 Busko-Zdrój, Polska","coordinate":{"latitude":50.469189,"longitude":20.719908},"openingHours":[{"days":"pn-śr","hours":"9:00-15:00"},{"days":"pt-ndz","hours":"12:00-18:00"}]},{"title":"Galeria Vita Warmia","address":"Plac Jedności Narodowej 14, 11-320 Jeziorany, Polska","coordinate":{"latitude":53.9766515,"longitude":20.7468647},"openingHours":[{"days":"pn-śr","hours":"9:00-15:00"},{"days":"pt-ndz","hours":"12:00-18:00"}]},{"title":"Galeria sztuki","address":"Staromiejska 1, 11-041 Olsztyn, Polska","coordinate":{"latitude":53.7774926,"longitude":20.4776531},"openingHours":[{"days":"pn-śr","hours":"9:00-17:00"},{"days":"czw-nd","hours":"11:00-19:00"}]},{"title":"Galeria Sztuki Współczesnej","address":"Grunwaldzka 3, 11-041 Olsztyn, Polska","coordinate":{"latitude":53.774578,"longitude":20.473374},"openingHours":[{"days":"wt","hours":"9:00-17:00"},{"days":"czw-nd","hours":"12:00-20:00"}]},{"title":"Olsztyńska Galeria Sztuki","address":"Grunwaldzka 4A/5, 11-041 Olsztyn, Polska","coordinate":{"latitude":53.77506649999999,"longitude":20.4732079},"openingHours":[{"days":"wt","hours":"9:00-17:00"},{"days":"czw-nd","hours":"12:00-20:00"}]},{"title":"Galeria Sztuki Schron Giżycko","address":"plac Grunwaldzki 1a, 11-500 Giżycko, Polska","coordinate":{"latitude":54.0362101,"longitude":21.7683433},"openingHours":[{"days":"pn-nd","hours":"10:00-20:00"}]},{"title":"Galeria Sztuki Współczesnej","address":"Niepodległości 4, 14-200 Iława, Polska","coordinate":{"latitude":53.5967626,"longitude":19.5650638},"openingHours":[{"days":"pn-nd","hours":"8:00-16:00"},{"days":"wt-czw","hours":"10:00-19:00"}]},{"title":"Galeria rzeźby Adama Szubskiego w plenerze","address":"Zgon 37, 11-710, Polska","coordinate":{"latitude":53.6490828,"longitude":21.3950345},"openingHours":[{"days":"pon-śr","hours":"8:30-16:30"},{"days":"czw-pt","hours":"10:00-18:00"}]},{"title":"Centrum Sztuki Galeria EL","address":"Kuśnierska 6, 82-300 Elbląg, Polska","coordinate":{"latitude":54.1604381,"longitude":19.3940242},"openingHours":[{"days":"pn-śr","hours":"9:00-15:00"},{"days":"pt-ndz","hours":"12:00-18:00"}]},{"title":"Galeria Sztuki Nowy Ratusz","address":"Plac Tysiąclecia Państwa Polskiego 1, 14-100 Ostróda, Polska","coordinate":{"latitude":53.70307099999999,"longitude":19.9626811},"openingHours":[{"days":"pn-nd","hours":"10:00-20:00"}]},{"title":"Galeria Sztuki BWA w Olsztynie","address":"aleja Marszałka Józefa Piłsudskiego 38, 10-450 Olsztyn, Polska","coordinate":{"latitude":53.7751428,"longitude":20.4910989},"openingHours":[{"days":"wt","hours":"9:00-17:00"},{"days":"czw-nd","hours":"12:00-20:00"}]},{"title":"W RAMACH SZTUKI","address":"Gietkowska 10, segment E, 11-700 Olsztyn, Polska","coordinate":{"latitude":53.7855554,"longitude":20.4775594},"openingHours":[{"days":"pn-śr","hours":"9:00-15:00"},{"days":"pt-ndz","hours":"12:00-18:00"}]},{"title":"EtnoWarmia Galeria StodołART","address":"Skolity 30a, 11-008 Skolity, Polska","coordinate":{"latitude":53.8890908,"longitude":20.2168882},"openingHours":[{"days":"pn-czw","hours":"12:00-18:00"},{"days":"pt-ndz","hours":"14:00-18:00"}]},{"title":"Galeria DOBRO","address":"Stare Miasto 24/25, 10-027 Olsztyn, Polska","coordinate":{"latitude":53.7765631,"longitude":20.4752345},"openingHours":[{"days":"pn-nd","hours":"10:00-20:00"}]},{"title":"Dom Pracy Twórczej i Galeria Renesowo","address":"Nowe Guty 64, 12-250, Polska","coordinate":{"latitude":53.77063450000001,"longitude":21.8814286},"openingHours":[{"days":"pn-śr","hours":"9:00-17:00"},{"days":"czw-nd","hours":"11:00-19:00"}]},{"title":"„Henrykowo” Galeria Historyczna w Pasymiu","address":"Jedności Słowiańskiej 7, 12-130 Pasym, Polska","coordinate":{"latitude":53.6519841,"longitude":20.7906698},"openingHours":[{"days":"pn-śr","hours":"9:00-15:00"},{"days":"pt-ndz","hours":"12:00-18:00"}]},{"title":"Galeria Spichlerz","address":"Piastowska 13, 11-041 Olsztyn, Polska","coordinate":{"latitude":53.7754866,"longitude":20.4762229},"openingHours":[{"days":"pn-śr","hours":"9:00-17:00"},{"days":"czw-nd","hours":"11:00-19:00"}]},{"title":"Pawilon wystawienniczy Państwowego Liceum Sztuk Plastycznych","address":"Jerzego Lanca 2, 11-041 Olsztyn, Polska","coordinate":{"latitude":53.7813384,"longitude":20.4820863},"openingHours":[{"days":"pon-śr","hours":"8:30-16:30"},{"days":"czw-pt","hours":"10:00-18:00"}]},{"title":"Morawski Andrzej. Pracownia rzeźbiarska. Galeria sztuki","address":"Mickiewicza 2, 11-500 Giżycko, Polska","coordinate":{"latitude":54.0381401,"longitude":21.7676377},"openingHours":[{"days":"pn-śr","hours":"9:00-15:00"},{"days":"pt-ndz","hours":"12:00-18:00"}]},{"title":"Galeria Kawkowo","address":"Nowe Kawkowo 30, 11-042 Nowe Kawkowo, Polska","coordinate":{"latitude":53.8562112,"longitude":20.2105459},"openingHours":[{"days":"pn-śr","hours":"9:00-17:00"},{"days":"czw-nd","hours":"11:00-19:00"}]},{"title":"Galeria Sztuki Grunwaldzkiej","address":"Grunwald, Polska","coordinate":{"latitude":53.4857007,"longitude":20.1252976},"openingHours":[{"days":"pn-nd","hours":"10:00-20:00"}]},{"title":"Galeria Sztuki Współczesnej w Ostrowie Wielkopolskim","address":"Królowej Jadwigi 10, 63-410 Ostrów Wielkopolski, Polska","coordinate":{"latitude":51.6520224,"longitude":17.8180187},"openingHours":[{"days":"pn-czw","hours":"12:00-18:00"},{"days":"pt-ndz","hours":"14:00-18:00"}]},{"title":"Galeria Sztuki w Mosinie","address":"Niezłomnych 1, 62-050 Mosina, Polska","coordinate":{"latitude":52.24486049999999,"longitude":16.8498975},"openingHours":[{"days":"pon-śr","hours":"8:30-16:30"},{"days":"czw-pt","hours":"10:00-18:00"}]},{"title":"Galeria Miejska","address":"Stary Rynek 16, 63-000 Środa Wielkopolska, Polska","coordinate":{"latitude":52.2292558,"longitude":17.275864},"openingHours":[{"days":"pn-nd","hours":"10:00-20:00"}]},{"title":"Galeria Sztuki Wszelakiej SZOSA 5","address":"Bugaj, Graniczna 40, 62-007 Biskupice, Polska","coordinate":{"latitude":52.468462,"longitude":17.165547},"openingHours":[{"days":"pn-czw","hours":"12:00-18:00"},{"days":"pt-ndz","hours":"14:00-18:00"}]},{"title":"Galeria 33","address":"Wiosny Ludów 17, 63-400 Ostrów Wielkopolski, Polska","coordinate":{"latitude":51.6484709,"longitude":17.8172633},"openingHours":[{"days":"pn-nd","hours":"10:00-20:00"}]},{"title":"Galeria Muzalewska","address":"Głogowska 29, 60-702 Poznań, Polska","coordinate":{"latitude":52.4000105,"longitude":16.9060892},"openingHours":[{"days":"pn-nd","hours":"10:00-20:00"}]},{"title":"Galeria Sztuki Współczesnej Jarek Cechmanowicz","address":"Ignacego Paderewskiego 7, 61-770 Poznań, Polska","coordinate":{"latitude":52.4077436,"longitude":16.9307859},"openingHours":[{"days":"pn-nd","hours":"10:00-20:00"}]},{"title":"V.A. Gallery Poland","address":"Wierzbowa 162, 62-081 Wysogotowo, Polska","coordinate":{"latitude":52.4161301,"longitude":16.7765614},"openingHours":[{"days":"pn-śr","hours":"9:00-17:00"},{"days":"czw-nd","hours":"11:00-19:00"}]},{"title":"Galeria VA","address":"al. Marcinkowskiego 26, 61-745 Poznań, Polska","coordinate":{"latitude":52.4093346,"longitude":16.9287734},"openingHours":[{"days":"pon-pt","hours":"10:00-18:00"},{"days":"sob","hours":"11:00-15:00"}]},{"title":"Galeria Sztuki Współczesnej GARBARY 48","address":"Garbary 48, 61-869 Poznań, Polska","coordinate":{"latitude":52.4065834,"longitude":16.9379241},"openingHours":[{"days":"pn-nd","hours":"10:00-20:00"}]},{"title":"Galeria Sztuki im. J. Tarasina / City Art Gallery of Kalisz","address":"plac Świętego Józefa 5, 62-800 Kalisz, Polska","coordinate":{"latitude":51.7631701,"longitude":18.0928382},"openingHours":[{"days":"pon-pt","hours":"10:00-18:00"},{"days":"sob","hours":"11:00-15:00"}]},{"title":"Art. M. Galeria sztuki użytkowej","address":"Sienkiewicza 26, 63-300 Pleszew, Polska","coordinate":{"latitude":51.8933118,"longitude":17.7854247},"openingHours":[{"days":"pn","hours":"10:00-16:00"},{"days":"śr-pt","hours":"13:00-19:00"}]},{"title":"GALERIA SZTUKI SZOKART","address":"plac Ratajskiego 1, 61-726 Poznań, Polska","coordinate":{"latitude":52.4092253,"longitude":16.9241986},"openingHours":[{"days":"pn-śr","hours":"9:00-17:00"},{"days":"czw-nd","hours":"11:00-19:00"}]},{"title":"Magiel Galeria Sztuki Współczesnej","address":"Farna 2a, 64-050 Wielichowo, Polska","coordinate":{"latitude":52.1167931,"longitude":16.3516218},"openingHours":[{"days":"wt","hours":"9:00-17:00"},{"days":"czw-nd","hours":"12:00-20:00"}]},{"title":"Vinci Art Gallery","address":"rynek Śródecki 15/2, 61-126 Poznań, Polska","coordinate":{"latitude":52.41074769999999,"longitude":16.954871},"openingHours":[{"days":"pn-nd","hours":"10:00-20:00"}]},{"title":"Mil'Art. Galeria sztuki","address":"Wroniecka 6, 61-763 Poznań, Polska","coordinate":{"latitude":52.4098929,"longitude":16.933977},"openingHours":[{"days":"pon-pt","hours":"10:00-18:00"},{"days":"sob","hours":"11:00-15:00"}]},{"title":"Galeria Polskich Artystów \"Jeszcze Nie Wiem?\"","address":"Stary Rynek 79, 61-772 Poznań, Polska","coordinate":{"latitude":52.408555,"longitude":16.9326359},"openingHours":[{"days":"pon-śr","hours":"8:30-16:30"},{"days":"czw-pt","hours":"10:00-18:00"}]},{"title":"Galeria Sztuki Giotto","address":"Harcerska 26, 62-510 Konin, Polska","coordinate":{"latitude":52.2331497,"longitude":18.289307},"openingHours":[{"days":"pon-pt","hours":"10:00-18:00"},{"days":"sob","hours":"11:00-15:00"}]},{"title":"Galeria Dom Sztuki","address":"Malwowa 162, 60-185 Skórzewo, Polska","coordinate":{"latitude":52.3965697,"longitude":16.802708},"openingHours":[{"days":"pn-śr","hours":"9:00-15:00"},{"days":"pt-ndz","hours":"12:00-18:00"}]},{"title":"Molski Gallery&amp;Collection","address":"aleja Wielkopolska 65A, 60-603 Poznań, Polska","coordinate":{"latitude":52.4201657,"longitude":16.9094597},"openingHours":[{"days":"pon-pt","hours":"10:00-18:00"},{"days":"sob","hours":"11:00-15:00"}]},{"title":"Galeria Sztuki - Zbigniew Murzyn","address":"Świerkowa 1, 76-031 Mścice, Polska","coordinate":{"latitude":54.223021,"longitude":16.103169},"openingHours":[{"days":"pn-śr","hours":"9:00-15:00"},{"days":"pt-ndz","hours":"12:00-18:00"}]},{"title":"Galeria Sztuki Schowek","address":"Świętego Wojciecha 15, 70-410 Szczecin, Polska","coordinate":{"latitude":53.4299032,"longitude":14.5486578},"openingHours":[{"days":"pn","hours":"10:00-16:00"},{"days":"śr-pt","hours":"13:00-19:00"}]},{"title":"ENTASIS - Galeria Sztuki - Maciej (Macias) Włosiński","address":"Rynek Nowy 1, 70-535 Szczecin, Polska","coordinate":{"latitude":53.4243119,"longitude":14.5604978},"openingHours":[{"days":"sb-nd","hours":"12:00-16:00"}]},{"title":"Galeria Malarstwa Kazimiery Szatkowskiej i artystów Gminy Wałcz","address":"Karsibór 21, 78-609 Karsibór, Polska","coordinate":{"latitude":53.3526646,"longitude":16.3980588},"openingHours":[{"days":"sb-nd","hours":"12:00-16:00"}]},{"title":"Open Gallery Monika Krupowicz","address":"ul, Koński Kierat 17/1 - 1 piętro, 70-563 Szczecin, Polska","coordinate":{"latitude":53.4265203,"longitude":14.5551861},"openingHours":[{"days":"pon-śr","hours":"8:30-16:30"},{"days":"czw-pt","hours":"10:00-18:00"}]},{"title":"srebroartystyczne.pl","address":"Jagiellońska 9, 70-436 Szczecin, Polska","coordinate":{"latitude":53.4310759,"longitude":14.5457875},"openingHours":[{"days":"sb-nd","hours":"12:00-16:00"}]},{"title":"Galeria Nad Morzem","address":"Bohaterów Września 4/9, 72-600 Świnoujście, Polska","coordinate":{"latitude":53.9090304,"longitude":14.2508685},"openingHours":[{"days":"pn-nd","hours":"8:00-16:00"},{"days":"wt-czw","hours":"10:00-19:00"}]},{"title":"Galeria Orient","address":"Aleja Papieża Jana Pawła II 1, 70-413 Szczecin, Polska","coordinate":{"latitude":53.4293398,"longitude":14.552371},"openingHours":[{"days":"pn-czw","hours":"12:00-18:00"},{"days":"pt-ndz","hours":"14:00-18:00"}]},{"title":"Galeria Sztuki Współczesnej - Miejsce Sztuki 44","address":"Armii Krajowej 13, 72-600 Świnoujście, Polska","coordinate":{"latitude":53.90845299999999,"longitude":14.2508879},"openingHours":[{"days":"pn","hours":"10:00-16:00"},{"days":"śr-pt","hours":"13:00-19:00"}]},{"title":"Galeria Staromiejska","address":"Staromiejska 9/10, 70-200 Szczecin, Polska","coordinate":{"latitude":53.4236745,"longitude":14.554308},"openingHours":[{"days":"pn","hours":"10:00-16:00"},{"days":"śr-pt","hours":"13:00-19:00"}]},{"title":"Gallery Kierat","address":"Koński Kierat 14, 71-899 Szczecin, Polska","coordinate":{"latitude":53.4264699,"longitude":14.555662},"openingHours":[{"days":"pn-nd","hours":"10:00-20:00"}]},{"title":"Marta- galeria autorska","address":"Kaszubska 16, 78-520 Złocieniec, Polska","coordinate":{"latitude":53.5239754,"longitude":16.0001571},"openingHours":[{"days":"pn-śr","hours":"9:00-15:00"},{"days":"pt-ndz","hours":"12:00-18:00"}]},{"title":"Galeria Art","address":"Wojska Polskiego 1/1, 72-600 Świnoujście, Polska","coordinate":{"latitude":53.912548,"longitude":14.240553},"openingHours":[{"days":"pn-śr","hours":"9:00-17:00"},{"days":"czw-nd","hours":"11:00-19:00"}]},{"title":"Galeria Artysty","address":"Monte Cassino, 71-899 Szczecin, Polska","coordinate":{"latitude":53.4361339,"longitude":14.5412255},"openingHours":[{"days":"pn-śr","hours":"9:00-17:00"},{"days":"czw-nd","hours":"11:00-19:00"}]},{"title":"Przepraszam, Tworzę się!","address":"plac Żołnierza Polskiego 2, 70-556 Szczecin, Polska","coordinate":{"latitude":53.4281909,"longitude":14.5536868},"openingHours":[{"days":"pn-nd","hours":"8:00-16:00"},{"days":"wt-czw","hours":"10:00-19:00"}]},{"title":"TRAFO Trafostacja Sztuki","address":"Świętego Ducha 4, 70-205 Szczecin, Polska","coordinate":{"latitude":53.4225293,"longitude":14.5568241},"openingHours":[{"days":"pn-czw","hours":"12:00-18:00"},{"days":"pt-ndz","hours":"14:00-18:00"}]},{"title":"Galeria pod Trasą Zamkową","address":"Panieńska 47, 70-535 Szczecin, Polska","coordinate":{"latitude":53.4270272,"longitude":14.5624838},"openingHours":[{"days":"pn-czw","hours":"12:00-18:00"},{"days":"pt-ndz","hours":"14:00-18:00"}]},{"title":"Kierat 2. Galeria Związku Polskich Artystów Plastyków","address":"Małopolska 5, 70-513 Szczecin, Polska","coordinate":{"latitude":53.429709,"longitude":14.5533335},"openingHours":[{"days":"pn-nd","hours":"8:00-16:00"},{"days":"wt-czw","hours":"10:00-19:00"}]},{"title":"Pracownia malarska Pueblo","address":"Rynek Nowy 1, 70-566 Szczecin, Polska","coordinate":{"latitude":53.42432520000001,"longitude":14.5603674},"openingHours":[{"days":"pn-śr","hours":"9:00-15:00"},{"days":"pt-ndz","hours":"12:00-18:00"}]},{"title":"Galeria Gilotyna","address":"plac Świętych Piotra i Pawła 4/6, 70-521 Szczecin, Polska","coordinate":{"latitude":53.4278908,"longitude":14.5595352},"openingHours":[{"days":"wt","hours":"9:00-17:00"},{"days":"czw-nd","hours":"12:00-20:00"}]}]